[{"adress":"2335 Taksony Széchenyi István út 88/D","connectorTypes":"Type2,Type2","openingHours":"Minden nap: 9-19","id":1,"name":"Taksony Széchenyi I. út","cost":0,"latitude":47.322244,"longitude":19.075226},{"adress":"2330 Dunaharszti Fő út 8-10.","connectorTypes":"Type2,Type2","openingHours":"24/7","id":2,"name":"Fő út 8-10.","cost":0,"latitude":47.357565,"longitude":19.085078},{"adress":"2314 Halásztelek Somogyi Béla utca 53.","connectorTypes":"Type2,Type2","openingHours":"24/7","id":3,"name":"Halásztelek Általános Iskola","cost":0,"latitude":47.362565,"longitude":18.982032},{"adress":"1211 Budapest Kossuth Lajos utca 69.","connectorTypes":"Type2,Type2","openingHours":"24/7","id":4,"name":"Penny Market - Kossut Lajos utca","cost":0,"latitude":47.428736,"longitude":19.070034},{"adress":"2045 Törökbálint Pannon út 1.","connectorTypes":"Type2","openingHours":"24/7","id":5,"name":"Telenor Magyarország Zrt.","cost":0,"latitude":47.42918783,"longitude":18.93558522},{"adress":"1115 Budapest Etele tér 3-4.","connectorTypes":"Type2,Type2","openingHours":"24/7","id":6,"name":"Elmű Nyrt.","cost":0,"latitude":47.46562150,"longitude":19.02336440},{"adress":"2146 Mogyoród Hungaroring főbejárat","connectorTypes":"Type2","openingHours":"24/7","id":7,"name":"Hungaroring Sport Zrt","cost":0,"latitude":47.58412546,"longitude":19.24247525},{"adress":"2040 Budaörs Sport utca 2-4.","connectorTypes":"Type2,Type2,Type2,Type2","openingHours":"24/7","id":8,"name":"Budaörs Auchan","cost":0,"latitude":47.45469596,"longitude":18.94733546},{"adress":"8000 Székesfehérvár Balatoni út 19-43.","connectorTypes":"Type2","openingHours":"24/7","id":9,"name":"Jancsár Hotel Kft","cost":0,"latitude":47.16680940,"longitude":18.40346640},{"adress":"3525 Miskolc Dózsa György út 13.","connectorTypes":"Type2,Type2","openingHours":"24/7","id":10,"name":"Émász","cost":0,"latitude":48.10664710,"longitude":20.77806290},{"adress":"7622 Pécs Bajcsy-Zsilinszky utca 14-16.","connectorTypes":"SCHUKO,SCHUKO,SCHUKO,SCHUKO","openingHours":"24/7","id":11,"name":"Fordan Hotel","cost":0,"latitude":46.06963680,"longitude":18.23027950},{"adress":"8600 Siófok Fő tér","connectorTypes":"CHAdeMO","openingHours":"24/7","id":12,"name":"Siófok Városháza","cost":0,"latitude":46.90424600,"longitude":18.05350130},{"adress":"2890 Tata Remeteségpuszta 1","connectorTypes":"Type2","openingHours":"24/7","id":13,"name":"Old Lake Golf Hotel","cost":0,"latitude":47.63528330,"longitude":18.30267120},{"adress":"9024 Győr Jókai utca 24.","connectorTypes":"Type2","openingHours":"24/7","id":14,"name":"Győrszol Zrt.","cost":0,"latitude":47.68363600,"longitude":17.63118000},{"adress":"3525 Miskolc Dózsa György út 13.","connectorTypes":"Type2,Type2","openingHours":"24/7","id":15,"name":"Miskolc Elmű Nyrt","cost":0,"latitude":48.10664710,"longitude":20.77806290},{"adress":"9200 Mosonmagyaróvár Mosonyi Mihály utca 2.","connectorTypes":"Type2","openingHours":"24/7","id":16,"name":"Huber Vendéglátó Kft.","cost":0,"latitude":47.86429770,"longitude":17.27886720}]
